City_ID,City,Lat,Lng,Max Temp,Humidity,Cloudiness,Wind Speed,Country,Date
0,port blair,11.6667,92.75,25.02,94,100,1.03,IN,1690145458
1,la mira,18.035,-102.3266,31.64,58,27,4.63,MX,1690145773
2,port alfred,-33.5906,26.891,12.88,83,100,3.13,ZA,1690145299
3,waitangi,-43.9535,-176.5597,12.68,97,99,0.89,NZ,1690144974
4,luderitz,-26.6481,15.1594,14.83,45,100,7.13,NA,1690145174
5,fort mcmurray,56.7268,-111.381,25.73,61,0,2.57,CA,1690145426
6,guerrero negro,27.9769,-114.0611,27.42,48,4,5.87,MX,1690145178
7,san jose del cabo,23.0589,-109.6977,32.6,74,100,3.13,MX,1690145481
8,kerikeri,-35.2268,173.9474,9.39,95,2,0.45,NZ,1690145776
9,puerto natales,-51.7236,-72.4875,-1.46,90,8,1.5,CL,1690144981
10,new norfolk,-42.7826,147.0587,10.4,87,94,1.93,AU,1690145329
11,hamilton,39.1834,-84.5333,31.0,48,40,4.12,US,1690145311
12,pisco,-13.7,-76.2167,23.03,60,0,3.09,PE,1690145302
13,happy valley-goose bay,53.3168,-60.3315,25.17,65,75,4.63,CA,1690145745
14,adamstown,-25.066,-130.1015,20.37,71,2,8.0,PN,1690145270
15,namibe,-15.1961,12.1522,17.86,74,83,3.73,AO,1690145778
16,edinburgh of the seven seas,-37.0676,-12.3116,13.34,80,66,11.06,SH,1690145275
17,baardheere,2.3446,42.2764,24.65,72,55,7.68,SO,1690145779
18,kingston,17.997,-76.7936,36.8,60,20,11.83,JM,1690145349
19,newman,37.3138,-121.0208,43.92,6,100,4.04,US,1690145418
20,vicuna,-30.0319,-70.7081,23.21,32,100,1.07,CL,1690145780
21,tiksi,71.6872,128.8694,6.15,68,4,2.83,RU,1690145100
22,masterton,-40.9597,175.6575,7.71,98,100,2.03,NZ,1690145780
23,kone,-21.0595,164.8658,18.04,58,1,1.43,NC,1690145398
24,namdrik,5.5994,168.1028,28.47,79,62,7.49,MH,1690145781
25,talnakh,69.4865,88.3972,11.23,88,11,0.51,RU,1690144997
26,yulinshi,38.2906,109.7494,24.63,39,85,1.55,CN,1690145782
27,weno,7.4515,151.8468,26.97,89,100,2.57,FM,1690145782
28,san luis de la loma,17.2706,-100.8939,32.28,56,24,3.2,MX,1690145178
29,sarangani,5.4033,125.4636,27.51,79,100,7.11,PH,1690145783
30,blackmans bay,-43.0167,147.3167,9.74,76,78,1.84,AU,1690145291
31,aykhal,66.0,111.5,19.44,61,92,3.01,RU,1690145367
32,port-aux-francais,-49.35,70.2167,5.84,87,74,15.79,TF,1690145268
33,constantia,44.1833,28.65,18.38,62,0,1.24,RO,1690145162
34,aasiaat,68.7098,-52.8699,3.78,96,100,1.42,GL,1690145155
35,khovd,48.0056,91.6419,18.18,36,84,2.24,MN,1690145785
36,qaqortoq,60.7167,-46.0333,11.63,81,72,0.62,GL,1690144993
37,utrik,11.2278,169.8474,28.72,77,78,6.26,MH,1690145367
38,ust'-ordynskiy,52.805,104.7508,14.78,98,100,2.46,RU,1690145786
39,fuglafjordur,62.244,-6.814,7.26,82,100,5.94,FO,1690145787
40,morozovsk,48.3539,41.8261,19.99,80,100,1.83,RU,1690145787
41,stanley,54.868,-1.6985,12.38,92,40,4.63,GB,1690145329
42,rouissat,31.9243,5.3502,39.04,8,0,3.09,DZ,1690145788
43,longboat key,27.4125,-82.659,33.49,61,40,6.17,US,1690145788
44,ocean city,39.2776,-74.5746,30.01,52,22,4.78,US,1690145599
45,tofol,5.3248,163.0078,28.46,80,100,5.61,FM,1690145789
46,ust-nera,64.5667,143.2,15.17,71,35,1.65,RU,1690145362
47,caluula,11.9661,50.7569,30.62,63,100,1.46,SO,1690145790
48,lata,40.1629,-8.3327,19.9,96,49,1.38,PT,1690145321
49,bethel,41.3712,-73.414,31.3,45,0,2.57,US,1690145273
50,brookings,44.3114,-96.7984,30.19,59,8,1.23,US,1690145422
51,yellowknife,62.456,-114.3525,20.29,60,100,4.12,CA,1690145215
52,castillos,-34.1667,-53.8333,11.86,66,73,3.75,UY,1690145792
53,phan rang-thap cham,11.5667,108.9833,25.63,84,100,2.12,VN,1690145792
54,grytviken,-54.2811,-36.5092,-6.04,76,21,3.68,GS,1690145267
55,holualoa,19.6228,-155.9522,28.64,77,20,5.14,US,1690145244
56,albany,42.6001,-73.9662,29.46,52,55,0.07,US,1690145004
57,corinto,37.9407,22.9573,32.72,37,0,0.89,GR,1690145793
58,haiku-pauwela,20.9219,-156.3051,28.98,72,40,9.26,US,1690145794
59,olonkinbyen,70.9221,-8.7187,4.85,89,97,4.7,SJ,1690145282
60,san antonio de pale,-1.4014,5.6325,22.74,82,52,4.85,GQ,1690145429
61,fort st. john,56.2499,-120.8529,20.94,32,75,4.63,CA,1690145409
62,afaahiti,-17.75,-149.2833,26.93,74,66,4.21,PF,1690145166
63,nova vicosa,-17.8919,-39.3719,22.07,87,17,4.91,BR,1690145795
64,bilibino,68.0546,166.4372,17.33,63,83,0.62,RU,1690145280
65,tokar,18.4254,37.729,32.73,50,27,4.39,SD,1690145796
66,isiolo,0.3546,37.5822,20.42,63,32,6.02,KE,1690145659
67,iqaluit,63.7506,-68.5145,9.85,66,40,5.66,CA,1690145304
68,loa janan,-0.583,117.095,22.65,99,59,1.34,ID,1690145797
69,taltal,-25.4,-70.4833,17.75,76,84,1.62,CL,1690145797
70,ribeira grande,38.5167,-28.7,24.22,78,40,5.66,PT,1690145310
71,opuwo,-18.0607,13.84,18.86,33,1,2.45,NA,1690145461
72,ushuaia,-54.8,-68.3,0.81,69,75,5.66,AR,1690145297
73,invercargill,-46.4,168.35,8.02,95,98,1.0,NZ,1690145277
74,jiuquan,39.7432,98.5174,25.39,19,73,2.41,CN,1690145799
75,waajid,3.8096,43.2463,24.17,66,77,7.74,SO,1690145799
76,port mathurin,-19.6833,63.4167,23.2,73,12,7.88,MU,1690145063
77,kushiro,42.975,144.3747,17.87,98,100,1.63,JP,1690145800
78,klyuchi,52.2667,79.1667,19.0,69,94,1.29,RU,1690145162
79,katsuura,35.1333,140.3,24.3,81,66,1.32,JP,1690145576
80,crane,31.3974,-102.3501,37.71,17,38,2.99,US,1690145438
81,broome,42.2506,-75.833,30.01,49,0,1.54,US,1690145801
82,atafu village,-8.5421,-172.5159,28.39,77,8,6.77,TK,1690145275
83,whitehorse,60.7161,-135.0538,18.43,72,100,2.06,CA,1690145326
84,carauari,-4.8828,-66.8958,34.3,38,27,1.02,BR,1690145432
85,iskateley,67.6803,53.1512,15.22,93,100,3.12,RU,1690145314
86,udachny,66.4167,112.4,18.03,72,88,2.32,RU,1690145216
87,angaur state,6.906,134.13,27.89,78,96,9.16,PW,1690145803
88,college,64.8569,-147.8028,28.66,54,75,1.54,US,1690145335
89,timimoun,29.2639,0.231,40.21,12,56,2.57,DZ,1690145804
90,susuman,62.7833,148.1667,12.25,74,59,1.27,RU,1690145460
91,talakan,50.3167,130.3667,18.21,98,100,5.4,RU,1690145804
92,bonthe,7.5264,-12.505,25.44,86,100,3.66,SL,1690145804
93,isabela,6.7085,121.9711,25.62,90,100,1.74,PH,1690145805
94,nuuk,64.1835,-51.7216,7.61,86,25,2.94,GL,1690145806
95,hithadhoo,-0.6,73.0833,28.22,77,81,4.66,MV,1690145345
96,pontes e lacerda,-15.2261,-59.3353,31.05,23,0,0.83,BR,1690145806
97,bria,6.5423,21.9863,21.77,92,68,0.65,CF,1690145807
98,papatowai,-46.5619,169.4708,8.79,95,98,1.5,NZ,1690145319
99,chamical,-30.36,-66.314,17.1,26,61,5.44,AR,1690145460
100,chilaw,7.5758,79.7953,27.01,86,100,8.34,LK,1690145808
101,enewetak,11.3474,162.3373,28.56,78,67,8.87,MH,1690145171
102,minas de marcona,-15.2119,-75.1103,16.9,66,3,5.56,PE,1690145306
103,el calafate,-50.3408,-72.2768,-4.73,74,2,0.98,AR,1690145808
104,ostroleka,53.0862,21.5757,18.29,71,100,2.31,PL,1690145809
105,ilulissat,69.2167,-51.1,9.01,81,75,1.54,GL,1690145294
106,shaping,22.7545,112.9565,29.9,84,90,1.2,CN,1690145810
107,warrnambool,-38.3833,142.4833,12.04,79,100,4.2,AU,1690145810
108,panshan,41.1881,122.0494,21.1,97,3,2.14,CN,1690145810
109,rongelap,11.1635,166.8941,28.71,71,19,8.29,MH,1690145158
110,altai,46.3722,96.2583,14.46,37,4,0.73,MN,1690145363
111,witu,-2.3889,40.4382,24.09,88,54,4.69,KE,1690145811
112,avarua,-21.2078,-159.775,26.03,94,75,4.63,CK,1690145284
113,seguela,7.9611,-6.6731,22.91,92,95,1.19,CI,1690145812
114,kavieng,-2.5744,150.7967,27.77,79,89,5.1,PG,1690145812
115,campbell river,50.0163,-125.2446,21.21,52,100,1.54,CA,1690145813
116,alekseyevka,50.6309,38.6903,15.78,95,57,3.8,RU,1690145813
117,lagunas,-5.2269,-75.6753,33.25,41,47,0.74,PE,1690145787
118,mokrous,51.2333,47.5167,16.53,92,100,2.34,RU,1690145814
119,roma,43.2128,-75.4557,28.71,44,0,5.14,US,1690145747
120,altay,47.8667,88.1167,17.19,28,34,1.37,CN,1690145814
121,nili,33.7218,66.1302,23.31,25,19,0.96,AF,1690145815
122,prince george,53.9166,-122.753,21.25,57,20,1.54,CA,1690145815
123,tulun,54.5611,100.5792,13.24,96,100,3.14,RU,1690145815
124,thompson,55.7435,-97.8558,21.09,43,20,3.6,CA,1690145101
125,east end,34.5507,-92.341,34.23,50,42,1.74,US,1690145816
126,remire-montjoly,4.9167,-52.2667,29.02,74,20,0.51,GF,1690145800
127,nadym,65.5333,72.5167,16.62,77,7,2.98,RU,1690145816
128,camabatela,-8.1881,15.375,18.24,65,7,1.44,AO,1690145817
129,timbuktu,16.7735,-3.0074,34.54,37,57,5.21,ML,1690145817
130,brindisi,40.5833,17.6667,31.54,54,0,1.37,IT,1690145818
131,isafjordur,66.0755,-23.124,11.09,87,100,1.52,IS,1690145156
132,labasa,-16.4167,179.3833,24.89,75,19,2.27,FJ,1690145818
133,kapa'a,22.0752,-159.319,29.18,81,100,7.2,US,1690145389
134,itoman,26.1247,127.6694,29.01,82,40,3.6,JP,1690145819
135,puerto ayora,-0.7393,-90.3518,29.98,74,44,4.89,EC,1690145103
136,margaret river,-33.95,115.0667,9.58,81,0,4.32,AU,1690145304
137,acapulco de juarez,16.8634,-99.8901,32.9,58,40,3.6,MX,1690145278
138,lompoc,34.6391,-120.4579,32.08,69,75,3.6,US,1690145374
139,kuqa,41.7278,82.9364,30.22,26,99,1.86,CN,1690145821
140,fuerte olimpo,-21.0415,-57.8738,31.36,19,0,2.26,PY,1690145822
141,arraial do cabo,-22.9661,-42.0278,22.92,78,0,8.75,BR,1690145376
142,eyl,7.9803,49.8164,26.29,65,67,12.29,SO,1690145823
143,donggang,28.9365,114.2259,24.24,97,2,0.87,CN,1690145823
144,cidreira,-30.1811,-50.2056,17.69,92,37,6.18,BR,1690145823
145,luwuk,-0.9516,122.7875,24.28,89,77,2.31,ID,1690145824
146,dhidhdhoo,6.8833,73.1,28.04,79,100,6.89,MV,1690145473
147,mineral wells,32.8085,-98.1128,39.59,23,0,0.0,US,1690145765
148,usogorsk,63.4106,48.6872,12.23,99,68,2.91,RU,1690145452
149,tunceli,39.1083,39.5471,23.84,53,0,3.42,TR,1690145723
150,vadso,70.0744,29.7487,8.49,93,100,6.69,NO,1690145155
151,petropavlovsk-kamchatsky,53.0452,158.6483,17.33,72,75,6.0,RU,1690145128
152,mount pleasant,32.7941,-79.8626,31.08,82,100,6.69,US,1690145822
153,morondava,-20.2833,44.2833,21.22,76,0,4.38,MG,1690145826
154,podporozh'ye,60.9112,34.1706,12.05,89,75,2.61,RU,1690145827
155,tamanrasset,22.785,5.5228,34.95,12,0,1.03,DZ,1690145827
156,darwin,-12.4611,130.8418,16.99,29,0,7.2,AU,1690145827
157,jamestown,42.097,-79.2353,28.07,60,75,4.63,US,1690145247
158,tanabe,33.7333,135.3667,23.72,88,1,2.59,JP,1690145828
159,tapes,-30.6733,-51.3958,15.39,89,85,4.87,BR,1690145828
160,codrington,-38.2667,141.9667,11.13,84,100,3.08,AU,1690145332
161,longyearbyen,78.2186,15.6401,9.91,71,0,5.66,SJ,1690145292
162,lethem,3.3803,-59.7968,28.87,75,59,2.34,GY,1690145829
163,kiunga,-6.1219,141.2906,21.47,99,100,0.22,PG,1690145811
164,tazovsky,67.4667,78.7,15.79,84,99,3.13,RU,1690145423
165,hadibu,12.65,54.0333,24.77,81,100,9.46,YE,1690145098
166,lihue,21.9789,-159.3672,28.77,74,100,7.2,US,1690145297
167,hilo,19.7297,-155.09,27.19,90,75,2.57,US,1690145772
168,edmundston,47.3737,-68.3251,25.13,60,40,1.54,CA,1690145832
169,noshiro,40.2039,140.0242,23.08,78,100,2.13,JP,1690145832
170,dunedin,-45.8742,170.5036,9.33,97,100,1.34,NZ,1690145692
171,kurumkan,54.3,110.3,16.45,66,14,1.63,RU,1690145464
172,ballina,-28.8667,153.5667,10.43,69,100,6.05,AU,1690145833
173,amga,60.8953,131.9608,18.17,79,93,0.71,RU,1690145833
174,tsiombe,-25.3,45.4833,18.55,84,0,1.93,MG,1690145834
175,west island,-12.1568,96.8225,24.99,83,40,5.14,CC,1690145270
176,malango,-2.9627,119.9001,18.17,98,82,0.68,ID,1690145834
177,divnoye,45.9089,43.3547,24.68,58,63,2.28,RU,1690145835
178,elliot lake,46.3834,-82.6331,24.49,48,71,4.31,CA,1690145308
179,san andres,12.5847,-81.7006,29.01,84,75,5.66,CO,1690145836
180,lebu,-37.6167,-73.65,10.06,80,79,2.7,CL,1690145281
181,margate,51.3813,1.3862,16.61,85,36,3.13,GB,1690145837
182,serdar,38.9764,56.2757,31.87,18,0,4.83,TM,1690145837
183,natal,-5.795,-35.2094,27.12,69,75,6.69,BR,1690145837
184,hawaiian paradise park,19.5933,-154.9731,27.07,88,75,2.57,US,1690145098
185,etaples,50.5219,1.6332,17.31,94,75,2.57,FR,1690145838
186,galesong,-5.3166,119.3661,21.01,76,8,2.57,ID,1690145839
187,kayunga,0.7025,32.8886,20.13,69,77,1.05,UG,1690145839
188,aliaga,15.5167,120.8667,25.72,96,100,1.51,PH,1690145839
189,jalqani,12.4486,34.2186,26.72,64,100,3.79,SD,1690145659
190,la paz,-16.5,-68.15,17.99,15,20,6.17,BO,1690145840
191,male,4.1748,73.5089,28.97,84,20,4.63,MV,1690145840
192,bodaybo,57.8506,114.1933,17.37,78,7,0.8,RU,1690145841
193,carnarvon,-24.8667,113.6333,15.67,33,0,8.86,AU,1690145456
194,badger,64.8,-147.5333,28.62,49,100,1.54,US,1690145338
195,as samawah,31.332,45.2944,37.59,10,16,4.31,IQ,1690145842
196,nizhneangarsk,55.7833,109.55,14.35,59,67,2.14,RU,1690145842
197,cabo san lucas,22.8909,-109.9124,32.61,66,83,3.92,MX,1690145788
198,dingzhou,38.5131,114.9956,23.06,75,0,0.51,CN,1690145843
199,takayama,36.1333,137.25,19.9,96,60,1.06,JP,1690145843
200,calingasta,-31.3308,-69.4078,16.35,31,40,3.2,AR,1690145844
201,la ferte-mace,48.59,-0.358,16.65,97,100,5.63,FR,1690145844
202,bikenibeu village,1.3673,173.1241,29.98,74,40,2.57,KI,1690145845
203,antsohihy,-14.8796,47.9875,19.89,71,0,2.32,MG,1690145845
204,andergrove,-21.0833,149.1833,13.14,92,99,7.15,AU,1690145405
205,posto fiscal rolim de moura,-13.0833,-62.2667,33.41,26,0,1.06,BR,1690145846
206,nelson bay,-32.7167,152.15,12.22,99,96,4.02,AU,1690145846
207,newnham,-41.3833,147.1333,8.51,96,100,2.57,AU,1690145846
208,albertina,-22.2008,-46.6158,19.29,49,42,1.35,BR,1690145847
209,nykvarn,59.8,18.3,17.02,83,23,2.36,SE,1690145847
210,saipan,15.1355,145.701,28.14,100,100,3.58,MP,1690145331
211,immenhausen,51.4276,9.4802,19.43,72,20,4.63,DE,1690145848
212,long xuyen,10.3833,105.4167,22.97,92,99,3.05,VN,1690145849
213,dudinka,69.4058,86.1778,11.46,82,36,3.58,RU,1690145333
214,vilyuysk,63.7553,121.6247,19.45,73,18,2.29,RU,1690145849
215,willard,41.0531,-82.7263,28.18,58,8,4.0,US,1690145850
216,holma,9.9008,13.0567,22.76,85,98,1.06,NG,1690145850
217,punta arenas,-53.15,-70.9167,-0.29,81,7,3.15,CL,1690145562
218,chesma,53.8111,60.6533,16.46,58,97,2.61,RU,1690145851
219,akrehamn,59.2667,5.1833,16.14,82,75,6.17,NO,1690145375
220,battagram,34.6772,73.0233,22.44,83,23,1.56,PK,1690145852
221,salinas,36.6777,-121.6555,29.45,68,0,7.2,US,1690145061
222,ridder,50.355,83.5133,16.13,53,100,1.31,KZ,1690145853
223,ouargla,31.9493,5.325,39.04,8,0,3.09,DZ,1690145853
224,fortaleza,-3.7227,-38.5247,28.07,65,0,4.63,BR,1690145356
225,yaren,-0.5472,166.916,28.5,72,3,2.44,NR,1690145854
226,shimoda,34.6667,138.95,25.61,81,15,0.9,JP,1690145854
227,axim,4.8699,-2.2405,24.93,86,99,2.05,GH,1690145855
228,garoua,9.3,13.4,25.6,76,98,1.3,CM,1690145855
229,chiang klang,19.2938,100.8617,23.44,97,21,0.8,TH,1690145855
230,wailua homesteads,22.0669,-159.378,28.44,85,100,7.2,US,1690145322
231,greenville,35.6127,-77.3663,32.09,55,0,2.24,US,1690145306
232,uturoa,-16.7333,-151.4333,25.63,75,15,5.53,PF,1690145332
233,inarajan village,13.2736,144.7484,28.55,89,100,5.48,GU,1690145857
234,areka,7.0667,37.7,16.17,90,100,0.93,ET,1690145857
235,quesnel,52.9999,-122.5029,20.28,49,20,2.06,CA,1690145857
236,chinde,26.8418,88.0763,19.56,88,100,1.05,NP,1690145858
237,saint-francois,46.4154,3.9054,24.69,57,0,2.06,FR,1690145858
238,saldanha,-33.0117,17.9442,7.03,79,0,4.36,ZA,1690145180
239,igarka,67.4667,86.5833,15.65,90,65,2.39,RU,1690145187
240,lamitan city,6.6608,122.1408,26.22,86,100,2.42,PH,1690145859
241,mont-laurier,46.5501,-75.4993,26.79,35,95,2.01,CA,1690145631
242,flin flon,54.7682,-101.865,22.91,38,40,2.06,CA,1690145860
243,andapa,-14.65,49.65,16.17,92,42,1.35,MG,1690145860
244,st. john's,47.5649,-52.7093,25.66,80,75,5.66,CA,1690145305
245,barra de santo antonio,-9.4047,-35.5072,24.6,81,17,4.7,BR,1690145861
246,kabansk,52.0486,106.6528,13.15,96,100,1.21,RU,1690145861
247,houmt el souk,33.8758,10.8575,32.97,38,0,3.6,TN,1690145861
248,shalqar,47.8333,59.6,26.8,30,0,7.27,KZ,1690145862
249,georgetown,5.4112,100.3354,27.96,95,20,1.03,MY,1690145116
250,nizhnyaya omka,55.4338,74.9426,15.48,93,100,1.33,RU,1690145862
251,kodiak,57.79,-152.4072,13.73,82,0,4.12,US,1690145212
252,mejit,10.2753,170.8646,28.41,80,20,8.2,MH,1690144999
253,praia da vitoria,38.7333,-27.0667,24.31,88,20,4.98,PT,1690145768
254,tazacorte,28.629,-17.9293,23.54,75,0,7.2,ES,1690145394
255,north bend,43.4065,-124.2243,27.36,72,0,6.69,US,1690145414
256,mo i rana,66.3128,14.1428,14.07,91,75,1.03,NO,1690145392
257,vilyuchinsk,52.9306,158.4028,18.15,82,79,5.28,RU,1690145865
258,hasaki,35.7333,140.8333,22.95,82,72,2.23,JP,1690145215
259,smarhon,54.4791,26.3934,14.02,90,100,2.02,BY,1690145865
260,bredasdorp,-34.5322,20.0403,9.72,79,63,2.53,ZA,1690145146
261,saudarkrokur,65.7461,-19.6394,10.22,97,100,0.37,IS,1690145389
262,gadzhiyevo,69.2551,33.3362,8.67,89,100,6.13,RU,1690145385
263,fale old settlement,-9.3852,-171.2468,28.38,77,21,6.1,TK,1690145378
264,sao vicente,-23.9631,-46.3919,28.1,49,2,1.03,BR,1690145867
265,maun,-19.9833,23.4167,11.98,47,6,0.51,BW,1690145867
266,itumbiara,-18.4192,-49.2153,25.34,34,0,1.4,BR,1690145867
267,redencao,-4.2258,-38.7306,25.22,70,78,2.43,BR,1690145868
268,tahe,52.3333,124.7333,16.29,70,100,1.15,CN,1690145868
269,armidale,-30.5167,151.65,2.11,98,27,2.49,AU,1690145868
270,shancheng,34.7953,116.0817,25.64,75,1,2.47,CN,1690145869
271,cienaga,11.007,-74.2476,33.02,62,20,3.09,CO,1690145869
272,flying fish cove,-10.4217,105.6791,23.82,88,100,5.14,CX,1690145012
273,east london,-33.0153,27.9116,14.66,71,100,7.2,ZA,1690145051
274,al bawiti,28.3492,28.8659,31.89,26,0,5.25,EG,1690145870
275,mil'kovo,55.6078,37.7956,15.22,93,84,2.96,RU,1690145870
276,gemena,3.25,19.7667,21.91,96,76,1.81,CD,1690145870
277,alofi,-19.0595,-169.9187,23.94,69,40,6.69,NU,1690145160
278,kharp,66.8014,65.8081,15.56,93,99,2.56,RU,1690145871
279,tual,-5.6667,132.75,25.15,78,100,11.23,ID,1690145871
280,anadyr,64.75,177.4833,14.28,76,75,3.0,RU,1690145349
281,elva,58.2225,26.4211,13.08,91,100,2.06,EE,1690145872
282,bengkulu,-3.8004,102.2655,23.97,94,99,3.46,ID,1690145313
283,kirensk,57.7853,108.1119,15.85,81,95,0.46,RU,1690145873
284,ar ruways,24.1103,52.7306,32.35,78,100,3.36,AE,1690145873
285,sosnovo-ozerskoye,52.5249,111.5418,9.98,90,19,2.77,RU,1690145873
286,kidal,18.4411,1.4078,36.72,26,15,3.32,ML,1690145751
287,tahoua,14.8888,5.2692,33.99,49,40,4.12,NE,1690145874
288,vernon,50.2581,-119.2691,33.75,21,5,1.54,CA,1690145413
289,sandviken,60.6167,16.7667,14.2,78,85,1.84,SE,1690145875
290,kangundo,-1.2979,37.3471,14.19,90,44,1.19,KE,1690145875
291,shihezi,44.3,86.0333,28.92,27,100,3.39,CN,1690145875
292,puerto baquerizo moreno,-0.9,-89.6,26.55,83,75,3.6,EC,1690145298
293,vytegra,61.0064,36.4481,12.5,87,16,3.79,RU,1690145876
294,puerto deseado,-47.7503,-65.8938,2.69,68,94,5.86,AR,1690145428
295,sitka,57.0531,-135.33,13.94,94,100,3.6,US,1690145278
296,road town,18.4167,-64.6167,31.05,62,20,5.14,VG,1690145469
297,augusto correa,-1.0217,-46.635,26.09,79,81,2.53,BR,1690145877
298,boguchany,58.3814,97.4531,15.91,80,25,0.91,RU,1690145453
299,hermanus,-34.4187,19.2345,8.78,70,44,2.06,ZA,1690145279
300,snyder,32.7179,-100.9176,36.84,17,0,1.54,US,1690145879
301,al jawf,29.5,38.75,32.41,16,5,4.13,SA,1690145879
302,kolonia,50.9333,6.95,19.93,86,20,2.57,DE,1690145674
303,tailai,46.3833,123.4,17.27,93,100,5.9,CN,1690145880
304,spanish wells,26.323,-81.7957,34.99,66,20,4.12,US,1690145881
305,shetpe,44.1667,52.1167,30.44,31,74,4.39,KZ,1690145881
306,buritama,-21.0661,-50.1472,25.14,36,2,1.58,BR,1690145881
307,manaure,11.7751,-72.4445,31.79,53,100,7.76,CO,1690145378
308,ribeira brava,32.65,-17.0667,23.34,68,11,0.51,PT,1690145381
309,namsos,64.4662,11.4957,12.95,82,100,1.54,NO,1690145183
310,shahpur,16.7,76.8333,23.2,92,100,6.65,IN,1690145430
311,east ballina,-28.8667,153.5833,10.44,68,100,6.48,AU,1690145883
312,olinda,-8.0089,-34.8553,25.85,69,40,6.69,BR,1690145803
313,dingwall,57.5953,-4.4272,12.99,93,53,1.94,GB,1690145884
314,noosa heads,-26.3833,153.15,13.52,81,100,7.19,AU,1690145327
315,villa ojo de agua,-29.5,-63.6938,13.87,34,100,8.82,AR,1690145884
316,saint-philippe,-21.3585,55.7679,19.77,85,48,5.17,RE,1690145159
317,kuraymah,18.55,31.85,33.86,11,37,5.22,SD,1690145885
318,kyshtovka,56.555,76.6271,14.92,84,61,2.33,RU,1690145885
319,yeppoon,-23.1333,150.7333,10.88,87,100,5.12,AU,1690145886
320,kimamba,-6.7833,37.1333,20.32,79,47,0.98,TZ,1690145886
321,vorgashor,67.5833,63.95,14.63,97,100,2.32,RU,1690145425
322,ancud,-41.8697,-73.8203,5.41,80,100,4.11,CL,1690145703
323,bako,5.7833,36.5667,19.93,67,98,2.38,ET,1690145887
324,mckenzie,47.7084,-103.4477,33.79,27,0,5.14,US,1690145888
325,san agustin de valle fertil,-30.6335,-67.4682,13.96,38,70,6.14,AR,1690145474
326,mahalapye,-23.1041,26.8142,16.9,35,11,2.17,BW,1690145888
327,sinabang,2.4803,96.3801,25.94,82,99,1.43,ID,1690145404
328,chester,40.1254,-75.8749,30.87,51,47,2.06,US,1690145889
329,hailin,44.5833,129.4167,18.98,94,42,4.35,CN,1690145693
330,choma,-16.8065,26.9531,14.63,49,0,2.07,ZM,1690145889
331,san julian,21.0167,-102.1667,26.36,32,100,4.82,MX,1690145325
332,sechura,-5.5569,-80.8222,27.31,57,4,7.25,PE,1690145348
333,tadine,-21.55,167.8833,20.09,51,5,2.99,NC,1690145891
334,mezhdurechenskiy,59.6,65.9333,15.89,96,100,2.08,RU,1690145796
335,kurchatov,51.6601,35.6521,15.23,88,12,2.42,RU,1690145891
336,norfolk,42.1668,-71.2495,31.34,45,40,3.09,US,1690145892
337,kangding,30.0513,101.9603,16.24,99,100,0.09,CN,1690145892
338,kavaratti,10.5669,72.642,28.13,82,100,9.51,IN,1690145343
339,chibougamau,49.9168,-74.3659,25.79,31,0,3.04,CA,1690145893
340,polyarnyy,69.1989,33.4478,8.81,90,100,5.95,RU,1690145893
341,moranbah,-22.0016,148.0466,9.96,88,100,7.47,AU,1690145894
342,port elizabeth,-33.918,25.5701,13.16,76,0,6.69,ZA,1690145307
343,yuzhno-kurilsk,44.0306,145.8556,15.74,99,98,1.68,RU,1690145894
344,la passe,45.5549,-0.8967,21.13,85,100,3.73,FR,1690145452
345,taiynsha,53.8478,69.7639,14.45,91,9,3.43,KZ,1690145895
346,watsa,3.0372,29.5355,21.36,63,75,0.83,CD,1690145895
347,palangkaraya,-2.2,113.8333,22.39,97,63,1.28,ID,1690145624
348,baukau,51.5526,7.2042,19.39,87,100,2.68,DE,1690145896
349,morden,49.1919,-98.1014,29.49,50,51,3.09,CA,1690145440
350,bandarbeyla,9.4942,50.8122,24.6,77,100,13.14,SO,1690145897
351,socorro,31.6546,-106.3033,36.77,23,70,1.84,US,1690145897
352,bayramaly,37.6185,62.1671,27.86,12,0,4.46,TM,1690145897
353,port lincoln,-34.7333,135.8667,12.67,73,100,2.64,AU,1690145104
354,vakarai,55.6035,23.8213,15.29,98,100,3.28,LT,1690145898
355,chonchi,-42.6128,-73.8092,6.73,87,100,1.21,CL,1690145145
356,kuala terengganu,5.3302,103.1408,26.97,94,20,1.03,MY,1690145899
357,sayat,38.7839,63.8803,32.93,11,0,8.67,TM,1690145899
358,mount gambier,-37.8333,140.7667,10.73,82,100,1.34,AU,1690145408
359,ola,59.5833,151.2833,13.66,87,99,0.53,RU,1690145901
360,keflavik,64.0049,-22.5624,12.95,87,75,3.09,IS,1690145385
361,auki,-8.7676,160.7034,24.43,92,100,2.48,SB,1690145901
362,makassar,-5.14,119.4221,21.03,94,20,1.03,ID,1690145902
363,aleg,17.0481,-13.9209,36.19,37,27,3.24,MR,1690145902
364,cabedelo,-6.9811,-34.8339,26.37,79,11,7.05,BR,1690145812
365,ban karon,7.8477,98.2985,27.95,82,84,7.3,TH,1690145903
366,damnagar,21.7,71.5167,25.75,92,87,3.59,IN,1690145904
367,general acha,-37.377,-64.6043,8.87,31,100,4.69,AR,1690145904
368,corfu,39.62,19.9197,28.88,54,0,1.03,GR,1690145904
369,bardai,11.65,7.2333,21.44,85,100,2.49,NG,1690145765
370,genhe,50.7833,121.5167,13.7,94,100,1.59,CN,1690145905
371,paka,4.6374,103.4368,25.96,89,99,1.54,MY,1690145408
372,cooper's town,26.8667,-77.5167,30.38,67,73,1.38,BS,1690145906
373,sao tome,0.3365,6.7273,23.93,81,97,4.07,ST,1690145474
374,beith,55.7492,-4.6368,14.57,85,26,2.57,GB,1690145907
375,nova sintra,14.8667,-24.7167,22.94,78,96,4.73,CV,1690145907
376,mhamid,29.82,-5.72,38.72,7,39,3.43,MA,1690145907
377,okha,53.5739,142.9478,16.95,74,11,4.88,RU,1690145908
378,greymouth,-42.4667,171.2,8.44,86,89,3.94,NZ,1690145908
379,lu-uk,5.9684,121.3122,26.24,87,100,4.45,PH,1690145908
380,yingshang chengguanzhen,32.6295,116.2701,25.29,90,1,1.94,CN,1690145909
381,vershino-darasunskiy,52.35,115.5167,12.73,94,98,1.12,RU,1690145909
382,coari,-4.085,-63.1414,33.54,39,66,0.21,BR,1690145909
383,rusera,25.75,86.0333,30.69,67,99,2.18,IN,1690145910
384,videira,-27.0083,-51.1517,18.68,75,40,0.5,BR,1690145911
385,alesund,62.4723,6.1549,15.0,88,20,6.69,NO,1690145861
386,quarteira,37.0695,-8.1006,27.87,36,0,5.14,PT,1690145912
387,howrah,22.5892,88.3103,28.0,94,40,1.54,IN,1690145912
388,kalmar,56.6616,16.3616,15.64,93,20,2.57,SE,1690145912
389,lokomotivnyy,53.0118,60.5684,18.56,54,80,3.58,RU,1690145913
390,dunafoldvar,46.808,18.9264,21.24,73,9,3.27,HU,1690145913
391,tumpat,6.1978,102.171,25.99,100,20,0.0,MY,1690145914
392,nar'yan-mar,67.6713,53.087,15.29,93,100,3.13,RU,1690145442
393,kazan,55.7887,49.1221,16.34,80,87,1.65,RU,1690145914
394,puerto aysen,-45.4,-72.7,2.36,93,100,1.64,CL,1690145914
395,harar,9.3094,42.1258,17.38,74,100,4.03,ET,1690145915
396,bochil,16.9833,-92.9167,21.65,87,99,0.41,MX,1690145915
397,kirklareli,41.7351,27.2252,22.21,83,0,5.24,TR,1690145626
398,mutum,-19.8,-41.4383,20.48,87,64,1.78,BR,1690145916
399,valdez,1.2492,-78.9831,27.61,80,93,5.24,EC,1690145916
400,sao joao da barra,-21.6403,-41.0511,23.05,84,16,5.53,BR,1690145378
401,plettenberg bay,-34.0527,23.3716,10.85,83,35,4.52,ZA,1690145917
402,arkhangel'sk,64.5401,40.5433,10.74,97,96,1.69,RU,1690145432
403,kapuskasing,49.4169,-82.4331,20.05,73,100,6.69,CA,1690145917
404,callao,-12.0667,-77.15,23.16,60,40,4.12,PE,1690145758
405,walvis bay,-22.9575,14.5053,12.27,87,22,1.03,NA,1690145918
406,zabol,32.25,67.25,24.68,53,12,1.59,AF,1690145918
407,amasya,40.6667,35.8333,22.82,63,1,1.95,TR,1690145918
408,val-d'or,48.1002,-77.7828,28.05,28,75,3.6,CA,1690145919
409,micheweni,-4.9667,39.8333,24.17,85,30,6.44,TZ,1690145919
410,santa cruz,-17.8,-63.1667,29.03,58,40,6.69,BO,1690145856
411,aniva,46.7144,142.5294,18.06,99,100,1.54,RU,1690145920
412,lamarque,-39.423,-65.7021,8.75,31,100,3.49,AR,1690145920
413,punta del este,-34.9667,-54.95,13.06,80,0,6.26,UY,1690145920
414,campo gallo,-26.5833,-62.85,21.56,36,0,4.04,AR,1690145921
415,mount pearl,47.5166,-52.7813,25.19,81,75,5.66,CA,1690145921
416,toliara,-23.35,43.6667,19.11,88,0,2.08,MG,1690145921
417,scottburgh,-30.2867,30.7532,18.04,86,95,5.16,ZA,1690145922
418,huntsville,34.7304,-86.5861,30.2,53,20,3.09,US,1690145922
419,urzhar,47.093,81.6294,19.57,35,2,3.4,KZ,1690145922
420,ispir,40.4829,40.9956,19.24,88,3,0.7,TR,1690145923
421,abra pampa,-22.7205,-65.697,17.69,5,0,4.8,AR,1690145923
422,kailua-kona,19.6406,-155.9956,30.71,77,20,5.14,US,1690145379
423,lubang,13.8584,120.124,28.11,76,100,5.93,PH,1690145924
424,alamogordo,32.8995,-105.9603,34.45,31,0,2.06,US,1690145924
425,bubaque,11.2833,-15.8333,27.2,82,86,6.87,GW,1690145435
426,horta,38.5333,-28.6333,23.8,80,40,5.66,PT,1690145210
427,padang,-0.9492,100.3543,24.03,83,100,0.85,ID,1690145925
428,queenstown,-31.8976,26.8753,6.04,83,67,1.95,ZA,1690145369
429,mambajao,9.2504,124.7156,27.02,85,100,9.23,PH,1690145926
430,prenzlau,53.3167,13.8667,20.38,62,78,3.82,DE,1690145926
431,luau,-10.7073,22.2247,18.79,31,4,1.49,AO,1690145927
432,ta`u,-14.2336,-169.5144,26.54,76,48,6.48,AS,1690145927
433,zaragoza,41.6561,-0.8773,31.25,55,0,5.14,ES,1690145924
434,okhotsk,59.3833,143.3,18.03,65,8,1.25,RU,1690145928
435,progreso,21.2833,-89.6667,32.61,56,10,6.94,MX,1690145928
436,tralee,52.2704,-9.7026,13.87,94,71,2.13,IE,1690145928
437,camana,-16.6228,-72.7111,18.0,79,10,2.58,PE,1690145929
438,wakkanai,45.4094,141.6739,18.94,97,100,4.02,JP,1690145929
439,oodweyne,9.4092,45.064,24.47,52,100,8.7,SO,1690145929
440,pasuquin,18.3328,120.6177,25.97,94,20,1.54,PH,1690145930
441,abepura,-2.6333,140.5833,24.45,83,40,0.0,ID,1690145358
442,northam,51.0333,-4.2167,16.33,90,98,3.19,GB,1690145435
443,belo sur tsiribihina,-19.7,44.55,20.21,91,0,0.88,MG,1690145931
444,duderstadt,51.5131,10.2595,19.93,92,100,4.39,DE,1690145931
445,san patricio,28.017,-97.5169,38.98,41,65,7.35,US,1690145365
446,touros,-5.1989,-35.4608,25.32,77,19,8.08,BR,1690145388
447,saint-pierre,-21.3393,55.4781,20.87,77,0,4.12,RE,1690145429
448,beyneu,45.3167,55.2,31.99,22,60,6.79,KZ,1690145932
449,charlestown,-32.95,151.6667,12.07,96,87,2.24,AU,1690145933
450,suoyarvi,62.0833,32.35,11.83,97,100,2.24,RU,1690145933
451,naama,33.2667,-0.3167,34.63,11,66,5.26,DZ,1690145934
452,agri,39.6667,43.1667,20.06,54,4,2.46,TR,1690145934
453,rurrenabaque,-14.4413,-67.5278,31.96,39,4,1.63,BO,1690145934
454,sao francisco,-15.9486,-44.8644,24.8,47,15,3.72,BR,1690145935
455,tura,25.5198,90.2201,24.0,94,100,1.86,IN,1690145935
456,luancheng,37.8792,114.6517,23.09,67,2,0.93,CN,1690145935
457,pokhara,28.2333,83.9833,22.81,92,96,1.03,NP,1690145912
458,laguna,38.421,-121.4238,40.17,31,0,4.12,US,1690145364
459,at-bashi,41.1702,75.8106,15.15,65,96,0.76,KG,1690145936
460,nandurbar,21.3667,74.25,25.2,89,100,6.53,IN,1690145936
461,grand falls-windsor,48.9332,-55.6649,23.06,85,100,1.34,CA,1690145937
462,ocos,14.5094,-92.1933,30.51,67,98,2.74,GT,1690145937
463,ljusdal,61.8288,16.0913,11.46,93,14,1.31,SE,1690145937
464,bonnyville,54.2668,-110.735,24.89,44,100,2.02,CA,1690145938
465,palmer,42.1584,-72.3287,30.43,42,40,0.45,US,1690145938
466,zelenoborskiy,66.845,32.3622,7.59,88,100,2.84,RU,1690145938
467,thurgoona,-36.0451,146.9919,4.25,100,0,0.89,AU,1690145939
468,fort bragg,35.139,-79.006,32.89,55,40,2.57,US,1690145939
469,christchurch,-43.5333,172.6333,10.11,93,75,6.17,NZ,1690145548
470,turek,52.0155,18.5005,22.64,39,100,5.36,PL,1690145940
471,kunming,25.0389,102.7183,15.96,100,20,3.0,CN,1690145828
472,colonia,50.9333,6.95,20.23,86,20,2.57,DE,1690145151
473,fort wellington,6.4,-57.6,28.35,69,11,3.5,GY,1690145940
474,loukhi,66.0764,33.0381,9.38,94,100,4.22,RU,1690145941
475,etawa,24.1855,78.2031,26.52,85,2,2.93,IN,1690145941
476,port hedland,-20.3167,118.5667,14.03,30,0,6.17,AU,1690145941
477,gilgit,35.9221,74.3087,27.3,59,39,1.04,PK,1690145377
478,ulladulla,-35.35,150.4667,8.4,90,31,2.51,AU,1690145942
479,xam nua,20.4197,104.0439,19.41,97,80,0.92,LA,1690145942
480,coquimbo,-29.9533,-71.3436,16.85,72,0,5.66,CL,1690145804
481,karatau,43.1667,70.4667,25.85,26,0,2.49,KZ,1690145943
482,labrador city,52.9463,-66.9114,21.95,68,75,3.6,CA,1690145943
483,suva,-18.1416,178.4415,21.71,88,40,1.54,FJ,1690145156
484,lensk,60.7253,114.9278,19.09,72,8,0.63,RU,1690145385
485,buka,40.8108,69.1986,25.21,27,1,3.4,UZ,1690145944
486,acarau,-2.8856,-40.12,26.32,77,36,7.62,BR,1690145797
487,chakari,-18.0629,29.8925,15.06,34,0,2.11,ZW,1690145945
488,amahai,-3.3333,128.9167,25.56,87,77,4.61,ID,1690145945
489,el bayadh,33.6832,1.0193,29.41,11,2,5.49,DZ,1690145946
490,fonte boa,-2.4959,-66.2662,28.58,68,100,0.48,BR,1690145946
491,port-vila,-17.7338,168.3219,20.78,88,100,1.54,VU,1690145947
492,cranbrook,49.4999,-115.7688,32.91,15,20,7.2,CA,1690145947
493,ishikawa,26.4233,127.8214,28.98,81,40,3.6,JP,1690145947
494,alice springs,-23.7,133.8833,0.75,86,0,3.09,AU,1690145174
495,shashemene,7.2,38.6,14.69,89,100,2.64,ET,1690145948
496,yangjiang,21.85,111.9667,26.21,88,100,1.29,CN,1690145948
497,gustavia,17.8962,-62.8498,30.77,74,99,2.68,BL,1690145594
498,khandyga,62.6667,135.6,17.75,82,14,1.1,RU,1690145359
499,voskresensk,55.3125,38.6636,15.32,97,44,2.72,RU,1690145950
500,surazh,53.0175,32.3918,12.88,82,78,2.95,RU,1690145950
501,taoudenni,22.6783,-3.9836,40.21,17,22,3.28,ML,1690145951
502,miedzyzdroje,53.9292,14.451,20.54,67,69,6.09,PL,1690145951
503,myitkyina,25.3833,97.4,23.92,99,64,0.32,MM,1690145825
504,novyy urgal,51.0736,132.5642,16.79,98,100,1.5,RU,1690145951
505,inhapi,-9.2214,-37.7486,21.81,68,11,4.56,BR,1690145952
506,severo-yeniseyskiy,60.3725,93.0408,13.52,94,44,0.67,RU,1690145952
507,sao joaquim do monte,-8.4325,-35.8044,18.74,95,27,3.68,BR,1690145953
508,fisterra,42.9049,-9.2629,18.19,89,55,3.6,ES,1690145783
509,santyoku,37.4406,129.1708,24.66,92,99,2.1,KR,1690145954
510,mulino,56.2892,42.9201,13.67,97,100,1.72,RU,1690145954
511,vila velha,-20.3297,-40.2925,23.97,84,75,3.6,BR,1690145756
512,dadukou,26.5479,101.7054,21.66,90,98,0.06,CN,1690145955
513,nemuro,43.3236,145.575,15.91,98,100,5.66,JP,1690145358
514,mazatlan,23.2167,-106.4167,32.73,76,62,2.24,MX,1690145931
515,peace river,56.2501,-117.286,23.17,43,40,1.03,CA,1690145956
516,ulricehamn,57.7916,13.4142,15.3,83,100,1.51,SE,1690145780
517,gamba,-2.65,10.0,22.35,91,90,2.16,GA,1690145957
518,harper,4.375,-7.7169,25.27,82,98,4.84,LR,1690145957
519,antonio enes,-16.2325,39.9086,21.06,74,0,2.66,MZ,1690145958
520,palikir - national government center,6.9248,158.1611,27.4,79,100,6.52,FM,1690145958
521,damavand,35.7178,52.065,24.24,27,53,1.26,IR,1690145381
522,vorkuta,67.5,64.0,14.68,97,100,2.63,RU,1690145959
523,huntingburg,38.2989,-86.955,31.67,58,75,4.12,US,1690145959
524,colchani,-20.3,-66.9333,7.99,28,0,1.33,BO,1690145959
525,sergach,55.5308,45.4661,15.28,82,85,2.62,RU,1690145960
526,salinas de hidalgo,22.6333,-101.7167,27.65,27,24,6.52,MX,1690145960
527,pathein,16.7833,94.7333,25.5,91,30,2.07,MM,1690145960
528,vallenar,-28.5708,-70.7581,25.23,20,96,2.25,CL,1690145961
529,dryden,49.7833,-92.7503,20.16,56,20,1.54,CA,1690145397
530,las heras,-46.5419,-68.9359,0.22,54,32,2.22,AR,1690145961
531,kristiansund,63.1115,7.732,15.03,77,20,6.17,NO,1690145207
532,mersa matruh,31.3525,27.2453,28.11,78,0,3.6,EG,1690145962
533,faya-largeau,17.9257,19.1043,35.16,14,42,2.09,TD,1690145962
534,changji,44.0167,87.3167,29.44,26,0,2.0,CN,1690145963
535,howard springs,-12.497,131.047,16.95,26,45,5.82,AU,1690145963
536,porto novo,6.4965,2.6036,24.9,93,100,2.8,BJ,1690145379
537,kuala tungkal,-0.8167,103.4667,24.32,91,100,2.79,ID,1690145964
538,zhangye,38.9342,100.4517,23.87,22,46,2.53,CN,1690145780
539,jalai nur,49.45,117.7,16.25,90,100,1.55,CN,1690145964
540,binzhou,37.3667,118.0167,24.76,77,0,0.63,CN,1690145965
541,maymana,35.9214,64.7836,28.0,21,31,1.69,AF,1690145965
542,saint-paul,-21.0096,55.2707,21.11,88,25,1.64,RE,1690145834
543,lautoka,-17.6167,177.4667,21.92,83,75,1.54,FJ,1690145736
544,general villegas,-35.0328,-63.0125,10.99,52,100,2.9,AR,1690145966
545,ezine,39.7856,26.3408,27.71,39,1,3.03,TR,1690145966
546,coronel dorrego,-38.7187,-61.2873,6.39,66,100,2.77,AR,1690145967
547,tateyama,34.9833,139.8667,24.43,82,61,0.96,JP,1690145967
548,ashton-sandy spring,39.1498,-77.005,31.37,54,75,2.68,US,1690145967
549,ely,52.3986,0.2581,19.65,85,40,2.57,GB,1690145968
550,menongue,-14.6585,17.691,15.3,36,50,2.25,AO,1690145968
551,licheng,23.2955,113.8284,25.9,91,94,0.78,CN,1690145968
552,el bauga,18.262,33.9081,34.37,11,21,5.22,SD,1690145371
553,santa rosalia,27.3167,-112.2833,32.64,57,97,4.25,MX,1690145969
554,lamu,-2.2717,40.902,24.12,83,66,6.23,KE,1690145447
